{"data":[{"id":5655,"name":"Parken","surface":"grass","address":"\u00d8ster All\u00e9 50","city":"K\u00f8benhavn","capacity":38065,"image_path":"https:\/\/cdn.sportmonks.com\/images\/soccer\/venues\/23\/5655.png","coordinates":"55.702712,12.572275"},{"id":5661,"name":"CASA Arena Horsens","surface":"grass","address":"Langmarksvej 53","city":"Horsens","capacity":10400,"image_path":"https:\/\/cdn.sportmonks.com\/images\/soccer\/venues\/29\/5661.png","coordinates":"55.871600,9.857090"},{"id":5659,"name":"Br\u00f8ndby Stadion","surface":"grass","address":"Br\u00f8ndby Stadion 8","city":"Br\u00f8ndby","capacity":29000,"image_path":"https:\/\/cdn.sportmonks.com\/images\/soccer\/venues\/27\/5659.png","coordinates":"55.648912,12.418216"},{"id":5653,"name":"Sydbank Park","surface":"grass","address":"Stadionvej 7","city":"Haderslev","capacity":10000,"image_path":"https:\/\/cdn.sportmonks.com\/images\/soccer\/venues\/21\/5653.png","coordinates":"55.261402,9.487573"},{"id":342,"name":"MCH Arena","surface":"grass","address":"Kaj Zartows Vej 5","city":"Herning","capacity":11809,"image_path":"https:\/\/cdn.sportmonks.com\/images\/soccer\/venues\/22\/342.png","coordinates":"56.116910,8.951817"},{"id":85765,"name":"Aalborg Portland Park","surface":"grass","address":"Harald Jensens Vej 9","city":"Aalborg","capacity":13800,"image_path":"https:\/\/cdn.sportmonks.com\/images\/soccer\/venues\/5\/85765.png","coordinates":"57.052028,9.898600"},{"id":214349,"name":"Nature Energy Park","surface":"grass","address":"H\u00f8jstrupvej 7B","city":"Odense","capacity":15761,"image_path":"https:\/\/cdn.sportmonks.com\/images\/soccer\/venues\/13\/214349.png","coordinates":"55.397831,10.350139"},{"id":318820,"name":"Cepheus Park Randers","surface":"grass","address":"Viborgvej 92a","city":"Randers","capacity":12000,"image_path":"https:\/\/cdn.sportmonks.com\/images\/soccer\/venues\/4\/318820.png","coordinates":"56.465955,10.010346"},{"id":1436,"name":"Right to Dream Park","surface":"grass","address":"Idr\u00e6tsv\u00e6nget 2","city":"Farum","capacity":10100,"image_path":"https:\/\/cdn.sportmonks.com\/images\/soccer\/venues\/28\/1436.png","coordinates":"55.816125,12.352792"},{"id":1576,"name":"Lyngby Stadion","surface":"grass","address":"Lundtoftevej 53","city":"Lyngby","capacity":12000,"image_path":"https:\/\/cdn.sportmonks.com\/images\/soccer\/venues\/8\/1576.png","coordinates":"55.781454,12.505519"},{"id":1708,"name":"Ceres Park","surface":"grass","address":"Stadion All\u00e9 70","city":"\u00c5rhus","capacity":20032,"image_path":"https:\/\/cdn.sportmonks.com\/images\/soccer\/venues\/12\/1708.png","coordinates":"56.132030,10.196503"},{"id":4832,"name":"Vejle Stadion","surface":"grass","address":"Roms Hule 3","city":"Vejle","capacity":10250,"image_path":"https:\/\/cdn.sportmonks.com\/images\/soccer\/venues\/0\/4832.png","coordinates":"55.713774,9.556805"}],"meta":{"plans":[{"name":"Free Plan","request_limit":"180,60"}],"sports":[{"id":1,"name":"Soccer","current":true},{"id":6,"name":"Cricket","current":false}]}}F